$GPRMC,155433.00,A,5051.92876,N,02043.00649,E,1.415,,020717,,,A*7A
$GPVTG,,T,,M,1.415,N,2.621,K,A*25
$GPGGA,155433.00,5051.92876,N,02043.00649,E,1,05,4.13,263.6,M,37.3,M,,*51
$GPGSA,A,3,26,27,18,16,10,,,,,,,,5.49,4.13,3.62*05
$GPGSV,2,1,08,07,01,298,,08,46,301,40,10,69,149,21,16,31,208,36*70
$GPGSV,2,2,08,18,58,077,22,26,10,190,38,27,81,250,39,30,04,330,18*7C
$GPGLL,5051.92876,N,02043.00649,E,155433.00,A,A*61
$GPRMC,155434.00,A,5051.92832,N,02043.00627,E,1.447,,020717,,,A*72
$GPVTG,,T,,M,1.447,N,2.680,K,A*29
$GPGGA,155434.00,5051.92832,N,02043.00627,E,1,05,4.13,264.4,M,37.3,M,,*5B
$GPGSA,A,3,26,27,18,16,10,,,,,,,,5.49,4.13,3.62*05
$GPGSV,3,1,09,07,01,298,,08,46,301,33,10,69,149,21,16,31,208,33*71
$GPGSV,3,2,09,18,58,077,29,21,,,31,26,10,190,36,27,81,250,39*46
$GPGSV,3,3,09,30,04,330,17*41
$GPGLL,5051.92832,N,02043.00627,E,155434.00,A,A*6E
$GPRMC,155435.00,A,5051.92804,N,02043.00634,E,1.257,,020717,,,A*73
$GPVTG,,T,,M,1.257,N,2.328,K,A*29
$GPGGA,155435.00,5051.92804,N,02043.00634,E,1,05,4.13,265.1,M,37.3,M,,*59
$GPGSA,A,3,26,27,18,16,10,,,,,,,,5.49,4.13,3.62*05
$GPGSV,3,1,09,07,01,298,,08,46,301,28,10,69,149,21,16,31,208,34*7C
$GPGSV,3,2,09,18,58,077,33,21,,,26,26,09,190,36,27,81,250,35*4F
$GPGSV,3,3,09,30,04,330,17*41
$GPGLL,5051.92804,N,02043.00634,E,155435.00,A,A*68
$GPRMC,155436.00,A,5051.92741,N,02043.00696,E,1.804,,020717,,,A*7A
$GPVTG,,T,,M,1.804,N,3.342,K,A*28
$GPGGA,155436.00,5051.92741,N,02043.00696,E,1,05,4.13,266.1,M,37.3,M,,*5F
$GPGSA,A,3,26,27,18,16,10,,,,,,,,5.49,4.13,3.62*05
$GPGSV,3,1,09,07,01,298,,08,46,301,38,10,69,149,36,16,31,208,29*77
$GPGSV,3,2,09,18,58,077,30,21,,,35,26,09,190,29,27,81,249,41*4B
$GPGSV,3,3,09,30,04,330,17*41
$GPGLL,5051.92741,N,02043.00696,E,155436.00,A,A*6D
$GPRMC,155437.00,A,5051.92284,N,02043.01084,E,2.047,,020717,,,A*7F
$GPVTG,,T,,M,2.047,N,3.791,K,A*2E
$GPGGA,155437.00,5051.92284,N,02043.01084,E,1,05,4.13,275.9,M,37.3,M,,*5C
$GPGSA,A,3,26,27,18,16,10,,,,,,,,5.49,4.13,3.62*05
$GPGSV,3,1,09,07,01,298,,08,46,301,37,10,69,149,41,16,31,208,27*76
$GPGSV,3,2,09,18,58,077,36,21,,,40,26,09,190,18,27,81,249,42*4E
$GPGSV,3,3,09,30,04,330,18*4E
$GPGLL,5051.92284,N,02043.01084,E,155437.00,A,A*64
$GPRMC,155438.00,A,5051.92207,N,02043.01169,E,2.358,323.00,020717,,,A*68
$GPVTG,323.00,T,,M,2.358,N,4.367,K,A*35
$GPGGA,155438.00,5051.92207,N,02043.01169,E,1,05,4.13,278.8,M,37.3,M,,*56
$GPGSA,A,3,26,27,18,16,10,,,,,,,,5.49,4.13,3.62*05
$GPGSV,3,1,09,07,01,298,,08,46,301,35,10,69,149,38,16,31,208,24*79
$GPGSV,3,2,09,18,58,077,41,21,,,32,26,09,190,18,27,81,249,42*4B
$GPGSV,3,3,09,30,04,330,17*41
$GPGLL,5051.92207,N,02043.01169,E,155438.00,A,A*62
$GPRMC,155439.00,A,5051.92377,N,02043.01165,E,2.477,318.17,020717,,,A*67
$GPVTG,318.17,T,,M,2.477,N,4.588,K,A*36
$GPGGA,155439.00,5051.92377,N,02043.01165,E,1,05,4.14,276.4,M,37.3,M,,*58
$GPGSA,A,3,26,27,18,16,10,,,,,,,,5.50,4.14,3.62*0A
$GPGSV,3,1,10,07,01,298,,08,46,301,31,10,69,149,39,16,31,208,20*70
$GPGSV,3,2,10,18,58,077,41,21,,,40,26,09,190,19,27,81,249,43*46
$GPGSV,3,3,10,30,04,330,17,32,06,150,*7A
$GPGLL,5051.92377,N,02043.01165,E,155439.00,A,A*69
$GPRMC,155440.00,A,5051.92332,N,02043.00990,E,2.197,312.40,020717,,,A*68
$GPVTG,312.40,T,,M,2.197,N,4.068,K,A*3E
$GPGGA,155440.00,5051.92332,N,02043.00990,E,1,04,4.28,278.2,M,37.3,M,,*52
$GPGSA,A,3,26,27,18,10,,,,,,,,,5.61,4.28,3.62*00
$GPGSV,3,1,10,07,01,298,,08,46,301,32,10,69,149,35,16,31,208,*7D
$GPGSV,3,2,10,18,58,077,40,21,,,34,26,09,190,18,27,81,249,43*45
$GPGSV,3,3,10,30,04,330,17,32,06,150,*7A
$GPGLL,5051.92332,N,02043.00990,E,155440.00,A,A*65
$GPRMC,155441.00,A,5051.92361,N,02043.00900,E,2.167,,020717,,,A*73
$GPVTG,,T,,M,2.167,N,4.013,K,A*27
$GPGGA,155441.00,5051.92361,N,02043.00900,E,1,04,4.28,278.4,M,37.3,M,,*5A
$GPGSA,A,3,26,27,18,10,,,,,,,,,5.61,4.28,3.62*00
$GPGSV,3,1,10,07,01,298,,08,46,301,32,10,69,149,33,16,31,208,25*7C
$GPGSV,3,2,10,18,58,077,30,21,,,38,26,09,190,16,27,81,249,39*4D
$GPGSV,3,3,10,30,04,330,19,32,06,150,*74
$GPGLL,5051.92361,N,02043.00900,E,155441.00,A,A*6B
$GPRMC,155442.00,A,5051.92371,N,02043.00765,E,3.106,,020717,,,A*7A
$GPVTG,,T,,M,3.106,N,5.752,K,A*22
$GPGGA,155442.00,5051.92371,N,02043.00765,E,1,04,4.28,278.9,M,37.3,M,,*58
$GPGSA,A,3,26,27,18,10,,,,,,,,,5.61,4.28,3.62*00
$GPGSV,3,1,10,07,01,298,,08,46,301,32,10,69,149,37,16,31,208,24*79
$GPGSV,3,2,10,18,58,077,31,21,,,43,26,09,190,16,27,81,249,40*4E
$GPGSV,3,3,10,30,04,330,18,32,06,150,*75
$GPGLL,5051.92371,N,02043.00765,E,155442.00,A,A*64
$GPRMC,155443.00,A,5051.92400,N,02043.00617,E,2.865,301.20,020717,,,A*6D
$GPVTG,301.20,T,,M,2.865,N,5.306,K,A*34
$GPGGA,155443.00,5051.92400,N,02043.00617,E,1,05,4.14,278.6,M,37.3,M,,*5D
$GPGSA,A,3,26,27,18,16,10,,,,,,,,5.50,4.14,3.62*0A
$GPGSV,3,1,10,07,01,298,,08,46,301,31,10,69,149,35,16,31,208,37*7A
$GPGSV,3,2,10,18,58,077,29,21,,,36,26,09,190,17,27,81,249,44*40
$GPGSV,3,3,10,30,04,330,18,32,06,150,*75
$GPGLL,5051.92400,N,02043.00617,E,155443.00,A,A*60
$GPRMC,155444.00,A,5051.92462,N,02043.00522,E,1.941,309.23,020717,,,A*64
$GPVTG,309.23,T,,M,1.941,N,3.594,K,A*30
$GPGGA,155444.00,5051.92462,N,02043.00522,E,1,05,4.14,277.7,M,37.3,M,,*55
$GPGSA,A,3,26,27,18,16,10,,,,,,,,5.50,4.14,3.62*0A
$GPGSV,3,1,10,07,01,298,,08,46,301,32,10,69,149,31,16,31,208,33*79
$GPGSV,3,2,10,18,58,077,34,21,,,39,26,09,190,19,27,81,249,42*4B
$GPGSV,3,3,10,30,04,330,18,32,06,150,*75
$GPGLL,5051.92462,N,02043.00522,E,155444.00,A,A*66
$GPRMC,155445.00,A,5051.92501,N,02043.00434,E,2.618,,020717,,,A*72
$GPVTG,,T,,M,2.618,N,4.848,K,A*2E
$GPGGA,155445.00,5051.92501,N,02043.00434,E,1,05,4.14,278.2,M,37.3,M,,*5C
$GPGSA,A,3,26,27,18,16,10,,,,,,,,5.50,4.14,3.62*0A
$GPGSV,3,1,10,07,01,298,,08,46,301,35,10,69,149,39,16,31,208,34*71
$GPGSV,3,2,10,18,58,077,24,21,,,29,26,09,190,19,27,81,249,42*4B
$GPGSV,3,3,10,30,04,330,18,32,06,150,*75
$GPGLL,5051.92501,N,02043.00434,E,155445.00,A,A*65
$GPRMC,155446.00,A,5051.92601,N,02043.00372,E,1.713,318.60,020717,,,A*6C
$GPVTG,318.60,T,,M,1.713,N,3.172,K,A*32
$GPGGA,155446.00,5051.92601,N,02043.00372,E,1,05,4.15,276.5,M,37.3,M,,*51
$GPGSA,A,3,26,27,18,16,10,,,,,,,,5.50,4.15,3.62*0B
$GPGSV,3,1,10,07,01,298,,08,46,301,33,10,69,149,35,16,31,208,29*77
$GPGSV,3,2,10,18,58,077,38,21,,,29,26,09,190,20,27,81,249,39*40
$GPGSV,3,3,10,30,04,330,19,32,06,150,*74
$GPGLL,5051.92601,N,02043.00372,E,155446.00,A,A*60
$GPRMC,155447.00,A,5051.92667,N,02043.00307,E,1.671,320.01,020717,,,A*66
$GPVTG,320.01,T,,M,1.671,N,3.095,K,A*33
$GPGGA,155447.00,5051.92667,N,02043.00307,E,1,05,4.15,275.0,M,37.3,M,,*54
$GPGSA,A,3,26,27,18,16,10,,,,,,,,5.50,4.15,3.62*0B
$GPGSV,3,1,11,07,01,298,,08,46,301,29,10,69,149,38,15,,,35*46
$GPGSV,3,2,11,16,31,208,34,18,58,077,37,21,,,33,26,09,190,22*46
$GPGSV,3,3,11,27,81,249,44,30,04,330,18,32,06,150,*47
$GPGLL,5051.92667,N,02043.00307,E,155447.00,A,A*63
$GPRMC,155448.00,A,5051.92712,N,02043.00239,E,2.169,316.96,020717,,,A*60
$GPVTG,316.96,T,,M,2.169,N,4.016,K,A*39
$GPGGA,155448.00,5051.92712,N,02043.00239,E,1,05,4.15,273.6,M,37.3,M,,*54
$GPGSA,A,3,26,27,18,16,10,,,,,,,,5.50,4.15,3.62*0B
$GPGSV,3,1,11,07,01,298,,08,46,301,29,10,69,149,41,15,,,29*45
$GPGSV,3,2,11,16,31,208,35,18,58,077,42,21,,,28,26,09,190,22*4F
$GPGSV,3,3,11,27,81,249,45,30,04,330,18,32,06,150,*46
$GPGLL,5051.92712,N,02043.00239,E,155448.00,A,A*63
$GPRMC,155449.00,A,5051.92760,N,02043.00190,E,1.764,316.06,020717,,,A*65
$GPVTG,316.06,T,,M,1.764,N,3.267,K,A*3B
$GPGGA,155449.00,5051.92760,N,02043.00190,E,1,05,4.15,273.2,M,37.3,M,,*54
$GPGSA,A,3,26,27,18,16,10,,,,,,,,5.50,4.15,3.62*0B
$GPGSV,3,1,11,07,01,298,,08,46,301,30,10,69,149,36,15,,,30*45
$GPGSV,3,2,11,16,31,208,32,18,58,077,42,21,,,36,26,09,190,24*41
$GPGSV,3,3,11,27,81,249,46,30,04,330,18,32,06,150,*45
$GPGLL,5051.92760,N,02043.00190,E,155449.00,A,A*67
$GPRMC,155450.00,A,5051.92755,N,02043.00188,E,0.350,,020717,,,A*7C
$GPVTG,,T,,M,0.350,N,0.648,K,A*2F
$GPGGA,155450.00,5051.92755,N,02043.00188,E,1,05,4.15,273.0,M,37.3,M,,*51
$GPGSA,A,3,26,27,18,16,10,,,,,,,,5.51,4.15,3.62*0A
$GPGSV,3,1,11,07,01,298,,08,46,301,36,10,69,149,41,15,,,30*43
$GPGSV,3,2,11,16,31,208,35,18,58,077,42,21,,,32,26,09,190,23*45
$GPGSV,3,3,11,27,81,249,43,30,04,330,18,32,06,150,*40
$GPGLL,5051.92755,N,02043.00188,E,155450.00,A,A*60
$GPRMC,155451.00,A,5051.92725,N,02043.00194,E,0.490,,020717,,,A*7C
$GPVTG,,T,,M,0.490,N,0.907,K,A*20
$GPGGA,155451.00,5051.92725,N,02043.00194,E,1,05,4.15,273.3,M,37.3,M,,*59
$GPGSA,A,3,26,27,18,16,10,,,,,,,,5.51,4.15,3.62*0A
$GPGSV,3,1,11,07,01,298,,08,46,301,34,10,69,149,43,15,,,29*4B
$GPGSV,3,2,11,16,31,208,34,18,58,077,26,21,,,31,26,09,190,29*4F
$GPGSV,3,3,11,27,81,249,42,30,04,330,16,32,06,150,*4F
$GPGLL,5051.92725,N,02043.00194,E,155451.00,A,A*6B
$GPRMC,155452.00,A,5051.92684,N,02043.00204,E,1.888,,020717,,,A*7B
$GPVTG,,T,,M,1.888,N,3.496,K,A*22
$GPGGA,155452.00,5051.92684,N,02043.00204,E,1,05,4.15,272.4,M,37.3,M,,*5C
$GPGSA,A,3,26,27,18,16,10,,,,,,,,5.51,4.15,3.62*0A
$GPGSV,3,1,11,07,01,298,,08,46,301,37,10,69,149,40,15,,,30*43
$GPGSV,3,2,11,16,31,208,39,18,58,077,29,21,,,27,26,09,190,32*40
$GPGSV,3,3,11,27,81,249,42,30,04,330,16,32,06,150,*4F
$GPGLL,5051.92684,N,02043.00204,E,155452.00,A,A*68
$GPRMC,155453.00,A,5051.92623,N,02043.00236,E,2.308,242.91,020717,,,A*64
$GPVTG,242.91,T,,M,2.308,N,4.274,K,A*3D
$GPGGA,155453.00,5051.92623,N,02043.00236,E,1,05,4.16,272.6,M,37.3,M,,*50
$GPGSA,A,3,26,27,18,16,10,,,,,,,,5.51,4.16,3.62*09
$GPGSV,3,1,11,07,01,298,,08,46,301,34,10,69,149,30,15,,,30*47
$GPGSV,3,2,11,16,31,208,33,18,58,077,34,21,,,27,26,09,190,28*4D
$GPGSV,3,3,11,27,81,249,42,30,04,330,15,32,06,150,*4C
$GPGLL,5051.92623,N,02043.00236,E,155453.00,A,A*65
$GPRMC,155454.00,A,5051.92574,N,02043.00235,E,1.893,,020717,,,A*79
$GPVTG,,T,,M,1.893,N,3.506,K,A*20
$GPGGA,155454.00,5051.92574,N,02043.00235,E,1,05,4.16,271.5,M,37.3,M,,*55
$GPGSA,A,3,26,27,18,16,10,,,,,,,,5.51,4.16,3.62*09
$GPGSV,3,1,11,07,01,298,,08,46,301,34,10,69,149,29,15,,,29*47
$GPGSV,3,2,11,16,31,208,37,18,58,077,23,21,,,33,26,09,190,27*45
$GPGSV,3,3,11,27,81,249,42,30,04,330,17,32,06,150,*4E
$GPGLL,5051.92574,N,02043.00235,E,155454.00,A,A*60
$GPRMC,155455.00,A,5051.92510,N,02043.00366,E,3.277,153.05,020717,,,A*63
$GPVTG,153.05,T,,M,3.277,N,6.069,K,A*37
$GPGGA,155455.00,5051.92510,N,02043.00366,E,1,05,4.16,271.2,M,37.3,M,,*56
$GPGSA,A,3,26,27,18,16,10,,,,,,,,5.51,4.16,3.62*09
$GPGSV,3,1,11,07,01,298,,08,46,301,34,10,69,149,34,15,,,36*45
$GPGSV,3,2,11,16,31,208,34,18,58,077,30,21,,,26,26,09,190,25*42
$GPGSV,3,3,11,27,81,249,44,30,04,330,17,32,06,150,*48
$GPGLL,5051.92510,N,02043.00366,E,155455.00,A,A*64
$GPRMC,155456.00,A,5051.92446,N,02043.00419,E,2.514,150.16,020717,,,A*6F
$GPVTG,150.16,T,,M,2.514,N,4.657,K,A*3C
$GPGGA,155456.00,5051.92446,N,02043.00419,E,1,05,4.16,271.0,M,37.3,M,,*5A
$GPGSA,A,3,26,27,18,16,10,,,,,,,,5.51,4.16,3.62*09
$GPGSV,3,1,11,07,01,298,,08,46,301,39,10,69,149,33,15,,,28*40
$GPGSV,3,2,11,16,31,208,37,18,58,077,23,21,,,32,26,09,190,22*41
$GPGSV,3,3,11,27,81,249,43,30,04,330,17,32,06,150,*4F
$GPGLL,5051.92446,N,02043.00419,E,155456.00,A,A*6A
$GPRMC,155457.00,A,5051.92382,N,02043.00460,E,2.612,146.40,020717,,,A*6E
$GPVTG,146.40,T,,M,2.612,N,4.838,K,A*3A
$GPGGA,155457.00,5051.92382,N,02043.00460,E,1,05,4.16,270.7,M,37.3,M,,*5C
$GPGSA,A,3,26,27,18,16,10,,,,,,,,5.51,4.16,3.62*09
$GPGSV,3,1,11,07,01,298,,08,46,301,38,10,69,149,27,15,,,27*4B
$GPGSV,3,2,11,16,31,208,40,18,58,077,25,21,,,34,26,09,190,19*49
$GPGSV,3,3,11,27,81,249,43,30,04,330,17,32,06,150,*4F
$GPGLL,5051.92382,N,02043.00460,E,155457.00,A,A*6A
$GPRMC,155458.00,A,5051.92359,N,02043.00499,E,1.689,,020717,,,A*79
$GPVTG,,T,,M,1.689,N,3.128,K,A*2D
$GPGGA,155458.00,5051.92359,N,02043.00499,E,1,05,4.16,270.9,M,37.3,M,,*5D
$GPGSA,A,3,26,27,18,16,10,,,,,,,,5.51,4.16,3.62*09
$GPGSV,3,1,11,07,01,298,,08,46,301,40,10,69,149,31,15,,,33*46
$GPGSV,3,2,11,16,31,208,29,18,58,077,26,21,,,30,26,09,190,17*4F
$GPGSV,3,3,11,27,81,249,44,30,04,330,16,32,06,150,*49
$GPGLL,5051.92359,N,02043.00499,E,155458.00,A,A*65
$GPRMC,155459.00,A,5051.92302,N,02043.00588,E,2.646,,020717,,,A*77
$GPVTG,,T,,M,2.646,N,4.901,K,A*29
$GPGGA,155459.00,5051.92302,N,02043.00588,E,1,05,4.16,271.5,M,37.3,M,,*5E
$GPGSA,A,3,26,27,18,16,10,,,,,,,,5.51,4.16,3.62*09
$GPGSV,3,1,11,07,01,298,,08,46,301,39,10,69,149,25,15,,,17*4B
$GPGSV,3,2,11,16,31,208,21,18,58,077,32,21,,,30,26,09,190,17*42
$GPGSV,3,3,11,27,81,249,45,30,04,330,15,32,06,150,21*48
$GPGLL,5051.92302,N,02043.00588,E,155459.00,A,A*6B
$GPRMC,155500.00,A,5051.92285,N,02043.00676,E,2.528,,020717,,,A*7D
$GPVTG,,T,,M,2.528,N,4.681,K,A*25
$GPGGA,155500.00,5051.92285,N,02043.00676,E,1,05,4.17,272.0,M,37.3,M,,*58
$GPGSA,A,3,26,27,18,16,10,,,,,,,,5.52,4.17,3.62*0B
$GPGSV,3,1,11,07,01,298,,08,46,301,37,10,69,149,31,15,,,27*43
$GPGSV,3,2,11,16,31,208,19,18,58,077,26,21,,,34,26,09,190,17*48
$GPGSV,3,3,11,27,81,248,44,30,04,330,15,32,06,150,20*49
$GPGLL,5051.92285,N,02043.00676,E,155500.00,A,A*6A
$GPRMC,155501.00,A,5051.92222,N,02043.00763,E,2.625,134.56,020717,,,A*61
$GPVTG,134.56,T,,M,2.625,N,4.862,K,A*33
$GPGGA,155501.00,5051.92222,N,02043.00763,E,1,05,4.17,273.0,M,37.3,M,,*50
$GPGSA,A,3,26,27,18,16,10,,,,,,,,5.52,4.17,3.62*0B
$GPGSV,3,1,11,07,01,298,,08,46,301,37,10,69,149,34,15,,,26*47
$GPGSV,3,2,11,16,31,208,20,18,58,077,32,21,,,36,26,09,190,17*45
$GPGSV,3,3,11,27,81,248,41,30,04,330,16,32,06,150,18*44
$GPGLL,5051.92222,N,02043.00763,E,155501.00,A,A*63
$GPRMC,155502.00,A,5051.92160,N,02043.00844,E,2.376,,020717,,,A*75
$GPVTG,,T,,M,2.376,N,4.400,K,A*23
$GPGGA,155502.00,5051.92160,N,02043.00844,E,1,05,4.17,274.1,M,37.3,M,,*5A
$GPGSA,A,3,26,27,18,16,10,,,,,,,,5.52,4.17,3.62*0B
$GPGSV,3,1,11,07,01,298,,08,46,301,36,10,69,149,32,15,,,25*43
$GPGSV,3,2,11,16,31,208,20,18,58,077,33,21,,,35,26,09,190,17*47
$GPGSV,3,3,11,27,81,248,45,30,04,329,16,32,06,150,21*42
$GPGLL,5051.92160,N,02043.00844,E,155502.00,A,A*6F
$GPRMC,155503.00,A,5051.92172,N,02043.00890,E,1.312,,020717,,,A*7F
$GPVTG,,T,,M,1.312,N,2.430,K,A*27
$GPGGA,155503.00,5051.92172,N,02043.00890,E,1,05,4.17,274.1,M,37.3,M,,*51
$GPGSA,A,3,26,27,18,16,10,,,,,,,,5.52,4.17,3.62*0B
$GPGSV,3,1,11,07,01,298,,08,46,301,39,10,69,149,28,15,,,25*47
$GPGSV,3,2,11,16,31,208,22,18,58,077,35,21,,,26,26,09,190,17*41
$GPGSV,3,3,11,27,81,248,45,30,04,329,17,32,06,150,20*42
$GPGLL,5051.92172,N,02043.00890,E,155503.00,A,A*64
$GPRMC,155504.00,A,5051.92136,N,02043.00898,E,0.919,,020717,,,A*70
$GPVTG,,T,,M,0.919,N,1.702,K,A*26
$GPGGA,155504.00,5051.92136,N,02043.00898,E,1,05,4.17,275.3,M,37.3,M,,*5D
$GPGSA,A,3,26,27,18,16,10,,,,,,,,5.52,4.17,3.61*08
$GPGSV,3,1,11,07,01,298,,08,46,301,39,10,69,149,27,15,,,25*48
$GPGSV,3,2,11,16,31,208,23,18,58,077,37,21,,,35,26,09,190,28*4C
$GPGSV,3,3,11,27,81,248,46,30,04,329,18,32,07,150,18*44
$GPGLL,5051.92136,N,02043.00898,E,155504.00,A,A*6B
$GPRMC,155505.00,A,5051.92092,N,02043.00940,E,0.270,,020717,,,A*7E
$GPVTG,,T,,M,0.270,N,0.499,K,A*22
$GPGGA,155505.00,5051.92092,N,02043.00940,E,1,05,4.17,277.6,M,37.3,M,,*50
$GPGSA,A,3,26,27,18,16,10,,,,,,,,5.52,4.17,3.61*08
$GPGSV,3,1,11,07,01,298,,08,46,301,35,10,69,149,35,15,,,26*44
$GPGSV,3,2,11,16,31,208,23,18,58,077,36,21,,,31,26,09,190,29*48
$GPGSV,3,3,11,27,81,248,37,30,04,329,15,32,07,150,16*41
$GPGLL,5051.92092,N,02043.00940,E,155505.00,A,A*61
$GPRMC,155506.00,A,5051.92074,N,02043.00973,E,0.064,,020717,,,A*72
$GPVTG,,T,,M,0.064,N,0.119,K,A*28
$GPGGA,155506.00,5051.92074,N,02043.00973,E,1,05,4.17,279.1,M,37.3,M,,*52
$GPGSA,A,3,26,27,18,16,10,,,,,,,,5.52,4.17,3.61*08
$GPGSV,3,1,11,07,01,298,20,08,46,301,27,10,69,149,31,15,,,23*44
$GPGSV,3,2,11,16,31,208,30,18,58,077,29,21,,,25,26,09,190,34*4D
$GPGSV,3,3,11,27,81,248,35,30,04,329,14,32,07,150,15*41
$GPGLL,5051.92074,N,02043.00973,E,155506.00,A,A*6A
$GPRMC,155507.00,A,5051.92101,N,02043.00995,E,0.205,,020717,,,A*7D
$GPVTG,,T,,M,0.205,N,0.379,K,A*29
$GPGGA,155507.00,5051.92101,N,02043.00995,E,1,05,4.18,279.0,M,37.3,M,,*56
$GPGSA,A,3,26,27,18,16,10,,,,,,,,5.52,4.18,3.61*07
$GPGSV,3,1,11,07,01,298,17,08,46,301,27,10,69,149,30,15,,,22*40
$GPGSV,3,2,11,16,31,208,34,18,58,077,37,21,,,26,26,09,190,30*41
$GPGSV,3,3,11,27,81,248,37,30,04,329,13,32,07,150,14*45
$GPGLL,5051.92101,N,02043.00995,E,155507.00,A,A*60
$GPRMC,155508.00,A,5051.92101,N,02043.00999,E,0.351,,020717,,,A*7E
$GPVTG,,T,,M,0.351,N,0.650,K,A*27
$GPGGA,155508.00,5051.92101,N,02043.00999,E,1,05,4.18,278.8,M,37.3,M,,*5C
$GPGSA,A,3,26,27,18,16,10,,,,,,,,5.52,4.18,3.61*07
$GPGSV,3,1,11,07,01,298,,08,46,301,38,10,69,149,23,15,,,24*4C
$GPGSV,3,2,11,16,31,208,32,18,58,077,34,21,,,36,26,09,190,34*41
$GPGSV,3,3,11,27,81,248,40,30,04,329,13,32,07,150,15*44
$GPGLL,5051.92101,N,02043.00999,E,155508.00,A,A*63
$GPRMC,155509.00,A,5051.92110,N,02043.01014,E,0.265,,020717,,,A*74
$GPVTG,,T,,M,0.265,N,0.491,K,A*2E
$GPGGA,155509.00,5051.92110,N,02043.01014,E,1,05,4.18,278.9,M,37.3,M,,*51
$GPGSA,A,3,26,27,18,16,10,,,,,,,,5.52,4.18,3.61*07
$GPGSV,3,1,11,07,01,298,21,08,46,301,31,10,69,149,22,15,,,23*40
$GPGSV,3,2,11,16,31,208,34,18,58,077,21,21,,,31,26,09,190,32*42
$GPGSV,3,3,11,27,81,248,40,30,04,329,13,32,07,150,16*47
$GPGLL,5051.92110,N,02043.01014,E,155509.00,A,A*6F
$GPRMC,155510.00,A,5051.92118,N,02043.01027,E,0.391,,020717,,,A*7E
$GPVTG,,T,,M,0.391,N,0.724,K,A*29
$GPGGA,155510.00,5051.92118,N,02043.01027,E,1,05,4.18,278.9,M,37.3,M,,*51
$GPGSA,A,3,26,27,18,16,10,,,,,,,,5.53,4.18,3.61*06
$GPGSV,3,1,11,07,01,298,,08,46,301,30,10,69,149,20,15,,,23*40
$GPGSV,3,2,11,16,31,208,34,18,58,077,23,21,,,32,26,09,190,31*40
$GPGSV,3,3,11,27,81,248,38,30,04,329,17,32,07,150,16*4C
$GPGLL,5051.92118,N,02043.01027,E,155510.00,A,A*6F
$GPRMC,155511.00,A,5051.92142,N,02043.01009,E,0.270,,020717,,,A*72
$GPVTG,,T,,M,0.270,N,0.500,K,A*23
$GPGGA,155511.00,5051.92142,N,02043.01009,E,1,05,4.18,278.4,M,37.3,M,,*5E
$GPGSA,A,3,26,27,18,16,10,,,,,,,,5.53,4.18,3.61*06
$GPGSV,3,1,11,07,01,298,,08,46,301,32,10,69,149,18,15,,,22*48
$GPGSV,3,2,11,16,31,208,33,18,58,077,24,21,,,33,26,09,190,31*41
$GPGSV,3,3,11,27,81,248,39,30,04,329,17,32,07,150,14*4F
$GPGLL,5051.92142,N,02043.01009,E,155511.00,A,A*6D
$GPRMC,155512.00,A,5051.92147,N,02043.01045,E,0.224,,020717,,,A*7D
$GPVTG,,T,,M,0.224,N,0.415,K,A*27
$GPGGA,155512.00,5051.92147,N,02043.01045,E,1,05,4.18,278.4,M,37.3,M,,*50
$GPGSA,A,3,26,27,18,16,10,,,,,,,,5.53,4.18,3.61*06
$GPGSV,3,1,11,07,01,298,,08,46,301,32,10,69,149,18,15,,,21*4B
$GPGSV,3,2,11,16,31,208,34,18,58,077,21,21,,,33,26,09,190,31*43
$GPGSV,3,3,11,27,81,248,39,30,04,329,15,32,07,150,13*4A
$GPGLL,5051.92147,N,02043.01045,E,155512.00,A,A*63
$GPRMC,155513.00,A,5051.92138,N,02043.01077,E,0.315,,020717,,,A*76
$GPVTG,,T,,M,0.315,N,0.583,K,A*2A
$GPGGA,155513.00,5051.92138,N,02043.01077,E,1,05,4.18,278.4,M,37.3,M,,*58
$GPGSA,A,3,26,27,18,16,10,,,,,,,,5.53,4.18,3.61*06
$GPGSV,3,1,11,07,01,298,,08,46,301,31,10,69,149,19,15,,,19*42
$GPGSV,3,2,11,16,31,208,33,18,58,077,22,21,,,32,26,09,190,32*45
$GPGSV,3,3,11,27,81,248,39,30,04,329,16,32,07,150,13*49
$GPGLL,5051.92138,N,02043.01077,E,155513.00,A,A*6B
$GPRMC,155514.00,A,5051.92139,N,02043.01089,E,0.516,,020717,,,A*74
$GPVTG,,T,,M,0.516,N,0.956,K,A*2B
$GPGGA,155514.00,5051.92139,N,02043.01089,E,1,05,4.19,278.2,M,37.3,M,,*58
$GPGSA,A,3,26,27,18,16,10,,,,,,,,5.53,4.19,3.61*07
$GPGSV,3,1,11,07,01,298,,08,46,301,27,10,69,149,19,15,,,18*44
$GPGSV,3,2,11,16,31,208,32,18,58,077,20,21,,,31,26,09,190,32*45
$GPGSV,3,3,11,27,81,248,39,30,04,329,17,32,07,150,13*48
$GPGLL,5051.92139,N,02043.01089,E,155514.00,A,A*6C
$GPRMC,155515.00,A,5051.92190,N,02043.01009,E,0.935,,020717,,,A*73
$GPVTG,,T,,M,0.935,N,1.732,K,A*2B
$GPGGA,155515.00,5051.92190,N,02043.01009,E,1,05,4.19,277.2,M,37.3,M,,*5D
$GPGSA,A,3,26,27,18,16,10,,,,,,,,5.53,4.19,3.61*07
$GPGSV,3,1,12,07,01,298,,08,46,301,27,10,69,149,17,11,06,281,*79
$GPGSV,3,2,12,15,,,16,16,31,208,32,18,58,077,20,21,,,32*72
$GPGSV,3,3,12,26,09,190,32,27,81,248,39,30,04,329,16,32,07,150,13*7E
$GPGLL,5051.92190,N,02043.01009,E,155515.00,A,A*66
$GPRMC,155516.00,A,5051.92236,N,02043.00911,E,1.792,,020717,,,A*7C
$GPVTG,,T,,M,1.792,N,3.319,K,A*26
$GPGGA,155516.00,5051.92236,N,02043.00911,E,1,05,4.19,276.3,M,37.3,M,,*50
$GPGSA,A,3,26,27,18,16,10,,,,,,,,5.53,4.19,3.61*07
$GPGSV,3,1,12,07,01,298,,08,46,301,27,10,69,149,15,11,06,281,*7B
$GPGSV,3,2,12,15,,,15,16,31,208,32,18,58,077,19,21,,,31*78
$GPGSV,3,3,12,26,09,190,31,27,81,248,37,30,04,329,13,32,07,150,12*77
$GPGLL,5051.92236,N,02043.00911,E,155516.00,A,A*6B
$GPRMC,155517.00,A,5051.92227,N,02043.00938,E,0.606,,020717,,,A*7B
$GPVTG,,T,,M,0.606,N,1.122,K,A*23
$GPGGA,155517.00,5051.92227,N,02043.00938,E,1,05,4.19,276.4,M,37.3,M,,*5D
$GPGSA,A,3,26,27,18,16,10,,,,,,,,5.53,4.19,3.61*07
$GPGSV,3,1,12,07,01,297,,08,46,301,27,10,69,149,16,11,06,281,*77
$GPGSV,3,2,12,15,,,13,16,31,208,33,18,58,077,17,21,,,31*71
$GPGSV,3,3,12,26,09,190,32,27,81,248,40,30,04,329,13,32,07,150,12*74
$GPGLL,5051.92227,N,02043.00938,E,155517.00,A,A*61
$GPRMC,155518.00,A,5051.92250,N,02043.00922,E,0.481,,020717,,,A*72
$GPVTG,,T,,M,0.481,N,0.890,K,A*2F
$GPGGA,155518.00,5051.92250,N,02043.00922,E,1,05,4.19,275.9,M,37.3,M,,*57
$GPGSA,A,3,26,27,18,16,10,,,,,,,,5.53,4.19,3.61*07
$GPGSV,3,1,12,07,01,297,,08,46,300,27,10,69,149,20,11,06,281,*73
$GPGSV,3,2,12,15,,,14,16,31,208,32,18,58,077,19,21,,,30*78
$GPGSV,3,3,12,26,09,190,31,27,81,248,40,30,04,329,12,32,07,150,12*76
$GPGLL,5051.92250,N,02043.00922,E,155518.00,A,A*65
$GPRMC,155519.00,A,5051.92267,N,02043.00898,E,0.643,,020717,,,A*7B
$GPVTG